{"type": "FeatureCollection", "features": [{"type": "Feature", "geometry": {"type": "Point", "coordinates": [72.88261, 19.07283]}, "properties": {"source_label": "bombay", "sentence_idx": 188}}, {"type": "Feature", "geometry": {"type": "Point", "coordinates": [72.88261, 19.07283]}, "properties": {"source_label": "bombay", "sentence_idx": 195}}, {"type": "Feature", "geometry": {"type": "Point", "coordinates": [75.4929, 11.74811]}, "properties": {"source_label": "tellicherry", "sentence_idx": 195}}, {"type": "Feature", "geometry": {"type": "Point", "coordinates": [74.85603, 12.91723]}, "properties": {"source_label": "mangalore", "sentence_idx": 195}}, {"type": "Feature", "geometry": {"type": "Point", "coordinates": [80.27847, 13.08784]}, "properties": {"source_label": "madras", "sentence_idx": 200}}, {"type": "Feature", "geometry": {"type": "Point", "coordinates": [72.88261, 19.07283]}, "properties": {"source_label": "bombay", "sentence_idx": 207}}, {"type": "Feature", "geometry": {"type": "Point", "coordinates": [75.88257, 11.24306]}, "properties": {"source_label": "malabar", "sentence_idx": 207}}]}