{"type": "FeatureCollection", "features": [{"type": "Feature", "geometry": {"type": "Point", "coordinates": [44.02488, 32.61603]}, "properties": {"source_label": "Kerbela", "sentence_idx": 1199}}, {"type": "Feature", "geometry": {"type": "Point", "coordinates": [39.61417, 24.46861]}, "properties": {"source_label": "medina", "sentence_idx": 1199}}, {"type": "Feature", "geometry": {"type": "Point", "coordinates": [39.61417, 24.46861]}, "properties": {"source_label": "medina", "sentence_idx": 1215}}, {"type": "Feature", "geometry": {"type": "Point", "coordinates": [52.53113, 29.61031]}, "properties": {"source_label": "schiras", "sentence_idx": 1219}}, {"type": "Feature", "geometry": {"type": "Point", "coordinates": [47.7804, 30.50852]}, "properties": {"source_label": "Bussora", "sentence_idx": 1238}}, {"type": "Feature", "geometry": {"type": "Point", "coordinates": [47.7804, 30.50852]}, "properties": {"source_label": "Bussora", "sentence_idx": 1239}}, {"type": "Feature", "geometry": {"type": "Point", "coordinates": [53.0, 32.0]}, "properties": {"source_label": "persien", "sentence_idx": 1245}}, {"type": "Feature", "geometry": {"type": "Point", "coordinates": [37.16117, 36.20124]}, "properties": {"source_label": "aleppo", "sentence_idx": 1249}}, {"type": "Feature", "geometry": {"type": "Point", "coordinates": [44.40088, 33.34058]}, "properties": {"source_label": "bagdad", "sentence_idx": 1251}}, {"type": "Feature", "geometry": {"type": "Point", "coordinates": [47.7804, 30.50852]}, "properties": {"source_label": "Bussora", "sentence_idx": 1253}}, {"type": "Feature", "geometry": {"type": "Point", "coordinates": [47.7804, 30.50852]}, "properties": {"source_label": "Bussora", "sentence_idx": 1255}}, {"type": "Feature", "geometry": {"type": "Point", "coordinates": [28.94966, 41.01384]}, "properties": {"source_label": "konstantinopel", "sentence_idx": 1263}}, {"type": "Feature", "geometry": {"type": "Point", "coordinates": [44.40088, 33.34058]}, "properties": {"source_label": "bagdad", "sentence_idx": 1265}}, {"type": "Feature", "geometry": {"type": "Point", "coordinates": [47.7804, 30.50852]}, "properties": {"source_label": "Bussora", "sentence_idx": 1265}}, {"type": "Feature", "geometry": {"type": "Point", "coordinates": [28.94966, 41.01384]}, "properties": {"source_label": "konstantinopel", "sentence_idx": 1266}}, {"type": "Feature", "geometry": {"type": "Point", "coordinates": [47.7804, 30.50852]}, "properties": {"source_label": "Bussora", "sentence_idx": 1267}}, {"type": "Feature", "geometry": {"type": "Point", "coordinates": [44.40088, 33.34058]}, "properties": {"source_label": "bagdad", "sentence_idx": 1271}}, {"type": "Feature", "geometry": {"type": "Point", "coordinates": [44.40088, 33.34058]}, "properties": {"source_label": "bagdad", "sentence_idx": 1272}}, {"type": "Feature", "geometry": {"type": "Point", "coordinates": [47.7804, 30.50852]}, "properties": {"source_label": "Bussora", "sentence_idx": 1276}}, {"type": "Feature", "geometry": {"type": "Point", "coordinates": [44.40088, 33.34058]}, "properties": {"source_label": "bagdad", "sentence_idx": 1283}}, {"type": "Feature", "geometry": {"type": "Point", "coordinates": [28.94966, 41.01384]}, "properties": {"source_label": "konstantinopel", "sentence_idx": 1283}}, {"type": "Feature", "geometry": {"type": "Point", "coordinates": [47.76572, 30.57889]}, "properties": {"source_label": "Euphrat", "sentence_idx": 1287}}, {"type": "Feature", "geometry": {"type": "Point", "coordinates": [44.40088, 33.34058]}, "properties": {"source_label": "bagdad", "sentence_idx": 1291}}, {"type": "Feature", "geometry": {"type": "Point", "coordinates": [47.7804, 30.50852]}, "properties": {"source_label": "Bussora", "sentence_idx": 1293}}, {"type": "Feature", "geometry": {"type": "Point", "coordinates": [59.60567, 36.29807]}, "properties": {"source_label": "khorasan", "sentence_idx": 1307}}, {"type": "Feature", "geometry": {"type": "Point", "coordinates": [53.0, 32.0]}, "properties": {"source_label": "persien", "sentence_idx": 1322}}]}