{"type": "FeatureCollection", "features": [{"type": "Feature", "geometry": {"type": "Point", "coordinates": [14.26811, 40.85216]}, "properties": {"source_label": "neapel", "sentence_idx": 144}}, {"type": "Feature", "geometry": {"type": "Point", "coordinates": [16.37208, 48.20849]}, "properties": {"source_label": "wien", "sentence_idx": 146}}, {"type": "Feature", "geometry": {"type": "Point", "coordinates": [14.26811, 40.85216]}, "properties": {"source_label": "neapel", "sentence_idx": 149}}, {"type": "Feature", "geometry": {"type": "Point", "coordinates": [12.78763, 43.84732]}, "properties": {"source_label": "montelabbate", "sentence_idx": 163}}, {"type": "Feature", "geometry": {"type": "Point", "coordinates": [12.78522, 50.53791]}, "properties": {"source_label": "schwarzenberg", "sentence_idx": 163}}, {"type": "Feature", "geometry": {"type": "Point", "coordinates": [16.75499, 48.74069]}, "properties": {"source_label": "feldsberg", "sentence_idx": 170}}, {"type": "Feature", "geometry": {"type": "Point", "coordinates": [16.80339, 48.79992]}, "properties": {"source_label": "eisgrub", "sentence_idx": 173}}]}