{"type": "FeatureCollection", "features": [{"type": "Feature", "geometry": {"type": "Point", "coordinates": [29.66667, 45.33333]}, "properties": {"source_label": "donau", "sentence_idx": 358}}, {"type": "Feature", "geometry": {"type": "Point", "coordinates": [20.0, 47.0]}, "properties": {"source_label": "ungarn", "sentence_idx": 360}}, {"type": "Feature", "geometry": {"type": "Point", "coordinates": [13.33333, 47.33333]}, "properties": {"source_label": "oesterreich", "sentence_idx": 360}}, {"type": "Feature", "geometry": {"type": "Point", "coordinates": [13.33333, 47.33333]}, "properties": {"source_label": "oesterreich", "sentence_idx": 363}}, {"type": "Feature", "geometry": {"type": "Point", "coordinates": [16.37208, 48.20849]}, "properties": {"source_label": "wien", "sentence_idx": 372}}, {"type": "Feature", "geometry": {"type": "Point", "coordinates": [16.33255, 48.27617]}, "properties": {"source_label": "kahlenberg", "sentence_idx": 376}}, {"type": "Feature", "geometry": {"type": "Point", "coordinates": [16.37208, 48.20849]}, "properties": {"source_label": "wien", "sentence_idx": 376}}, {"type": "Feature", "geometry": {"type": "Point", "coordinates": [17.10674, 48.14816]}, "properties": {"source_label": "pre\u00dfburg", "sentence_idx": 377}}]}