{"type": "FeatureCollection", "features": [{"type": "Feature", "geometry": {"type": "Point", "coordinates": [16.52327, 47.84565]}, "properties": {"source_label": "eisenstadt", "sentence_idx": 2282}}, {"type": "Feature", "geometry": {"type": "Point", "coordinates": [16.75, 47.83333]}, "properties": {"source_label": "neusiedler see", "sentence_idx": 2283}}, {"type": "Feature", "geometry": {"type": "Point", "coordinates": [29.66667, 45.33333]}, "properties": {"source_label": "donau", "sentence_idx": 2294}}, {"type": "Feature", "geometry": {"type": "Point", "coordinates": [13.25, 51.0]}, "properties": {"source_label": "sachsen", "sentence_idx": 2295}}, {"type": "Feature", "geometry": {"type": "Point", "coordinates": [18.62613, 49.74613]}, "properties": {"source_label": "teschen", "sentence_idx": 2295}}, {"type": "Feature", "geometry": {"type": "Point", "coordinates": [17.10674, 48.14816]}, "properties": {"source_label": "pre\u00dfburg", "sentence_idx": 2296}}, {"type": "Feature", "geometry": {"type": "Point", "coordinates": [12.51133, 41.89193]}, "properties": {"source_label": "rom", "sentence_idx": 2306}}, {"type": "Feature", "geometry": {"type": "Point", "coordinates": [17.10674, 48.14816]}, "properties": {"source_label": "pre\u00dfburg", "sentence_idx": 2308}}, {"type": "Feature", "geometry": {"type": "Point", "coordinates": [17.10674, 48.14816]}, "properties": {"source_label": "pre\u00dfburg", "sentence_idx": 2309}}, {"type": "Feature", "geometry": {"type": "Point", "coordinates": [17.10674, 48.14816]}, "properties": {"source_label": "pre\u00dfburg", "sentence_idx": 2320}}, {"type": "Feature", "geometry": {"type": "Point", "coordinates": [29.66667, 45.33333]}, "properties": {"source_label": "dos nau", "sentence_idx": 2320}}, {"type": "Feature", "geometry": {"type": "Point", "coordinates": [29.66667, 45.33333]}, "properties": {"source_label": "donau", "sentence_idx": 2324}}, {"type": "Feature", "geometry": {"type": "Point", "coordinates": [17.10674, 48.14816]}, "properties": {"source_label": "pre\u00dfburg", "sentence_idx": 2330}}, {"type": "Feature", "geometry": {"type": "Point", "coordinates": [12.30695, 49.46077]}, "properties": {"source_label": "pischdorf", "sentence_idx": 2331}}, {"type": "Feature", "geometry": {"type": "Point", "coordinates": [29.66667, 45.33333]}, "properties": {"source_label": "donau", "sentence_idx": 2339}}, {"type": "Feature", "geometry": {"type": "Point", "coordinates": [17.10674, 48.14816]}, "properties": {"source_label": "pre\u00dfburg", "sentence_idx": 2339}}, {"type": "Feature", "geometry": {"type": "Point", "coordinates": [29.66667, 45.33333]}, "properties": {"source_label": "donau", "sentence_idx": 2341}}, {"type": "Feature", "geometry": {"type": "Point", "coordinates": [29.66667, 45.33333]}, "properties": {"source_label": "donau", "sentence_idx": 2343}}]}