{"type": "FeatureCollection", "features": [{"type": "Feature", "geometry": {"type": "Point", "coordinates": [16.6378, 48.80556]}, "properties": {"source_label": "nikolsburg", "sentence_idx": 91}}, {"type": "Feature", "geometry": {"type": "Point", "coordinates": [16.6378, 48.80556]}, "properties": {"source_label": "nikolsburg", "sentence_idx": 93}}, {"type": "Feature", "geometry": {"type": "Point", "coordinates": [16.75499, 48.74069]}, "properties": {"source_label": "feldsberg", "sentence_idx": 97}}, {"type": "Feature", "geometry": {"type": "Point", "coordinates": [14.26811, 40.85216]}, "properties": {"source_label": "neapel", "sentence_idx": 97}}, {"type": "Feature", "geometry": {"type": "Point", "coordinates": [16.6378, 48.80556]}, "properties": {"source_label": "nikolsburg", "sentence_idx": 98}}, {"type": "Feature", "geometry": {"type": "Point", "coordinates": [9.53333, 47.16667]}, "properties": {"source_label": "liechtenstein", "sentence_idx": 99}}, {"type": "Feature", "geometry": {"type": "Point", "coordinates": [14.28611, 48.30639]}, "properties": {"source_label": "linz", "sentence_idx": 109}}, {"type": "Feature", "geometry": {"type": "Point", "coordinates": [16.75499, 48.74069]}, "properties": {"source_label": "feldsberg", "sentence_idx": 109}}, {"type": "Feature", "geometry": {"type": "Point", "coordinates": [13.33333, 47.33333]}, "properties": {"source_label": "oesterreich", "sentence_idx": 109}}, {"type": "Feature", "geometry": {"type": "Point", "coordinates": [16.75499, 48.74069]}, "properties": {"source_label": "feldsberg", "sentence_idx": 114}}, {"type": "Feature", "geometry": {"type": "Point", "coordinates": [9.53333, 47.16667]}, "properties": {"source_label": "liechtenstein", "sentence_idx": 115}}, {"type": "Feature", "geometry": {"type": "Point", "coordinates": [18.0, 51.0]}, "properties": {"source_label": "schlesien", "sentence_idx": 116}}, {"type": "Feature", "geometry": {"type": "Point", "coordinates": [13.33333, 47.33333]}, "properties": {"source_label": "oesterreich", "sentence_idx": 116}}, {"type": "Feature", "geometry": {"type": "Point", "coordinates": [9.53333, 47.16667]}, "properties": {"source_label": "liechtenstein", "sentence_idx": 116}}, {"type": "Feature", "geometry": {"type": "Point", "coordinates": [16.75499, 48.74069]}, "properties": {"source_label": "feldsberg", "sentence_idx": 117}}, {"type": "Feature", "geometry": {"type": "Point", "coordinates": [2.3488, 48.85341]}, "properties": {"source_label": "paris", "sentence_idx": 127}}, {"type": "Feature", "geometry": {"type": "Point", "coordinates": [16.6378, 48.80556]}, "properties": {"source_label": "nikolsburg", "sentence_idx": 129}}]}