{"type": "FeatureCollection", "features": [{"type": "Feature", "geometry": {"type": "Point", "coordinates": [17.58723, 48.37741]}, "properties": {"source_label": "tyrnau", "sentence_idx": 1360}}, {"type": "Feature", "geometry": {"type": "Point", "coordinates": [8.13886, 49.35009]}, "properties": {"source_label": "neustadt", "sentence_idx": 1361}}, {"type": "Feature", "geometry": {"type": "Point", "coordinates": [18.04436, 48.89452]}, "properties": {"source_label": "trentschin", "sentence_idx": 1361}}, {"type": "Feature", "geometry": {"type": "Point", "coordinates": [18.08453, 48.30763]}, "properties": {"source_label": "nitra", "sentence_idx": 1364}}, {"type": "Feature", "geometry": {"type": "Point", "coordinates": [18.91003, 48.44858]}, "properties": {"source_label": "schemnitz", "sentence_idx": 1364}}, {"type": "Feature", "geometry": {"type": "Point", "coordinates": [19.15349, 48.73946]}, "properties": {"source_label": "neusohl", "sentence_idx": 1366}}, {"type": "Feature", "geometry": {"type": "Point", "coordinates": [20.0, 47.0]}, "properties": {"source_label": "ungarn", "sentence_idx": 1367}}, {"type": "Feature", "geometry": {"type": "Point", "coordinates": [21.25808, 48.71395]}, "properties": {"source_label": "kaschau", "sentence_idx": 1370}}, {"type": "Feature", "geometry": {"type": "Point", "coordinates": [17.58723, 48.37741]}, "properties": {"source_label": "tyrnau", "sentence_idx": 1371}}, {"type": "Feature", "geometry": {"type": "Point", "coordinates": [15.45194, 46.82111]}, "properties": {"source_label": "st. nikolai", "sentence_idx": 1375}}, {"type": "Feature", "geometry": {"type": "Point", "coordinates": [20.0, 47.0]}, "properties": {"source_label": "ungarn", "sentence_idx": 1378}}, {"type": "Feature", "geometry": {"type": "Point", "coordinates": [20.87514, 48.91447]}, "properties": {"source_label": "krompach", "sentence_idx": 1383}}]}