{"type": "FeatureCollection", "features": [{"type": "Feature", "geometry": {"type": "Point", "coordinates": [16.37208, 48.20849]}, "properties": {"source_label": "wien", "sentence_idx": 2397}}, {"type": "Feature", "geometry": {"type": "Point", "coordinates": [16.11149, 47.00603]}, "properties": {"source_label": "loipersdorf", "sentence_idx": 2404}}, {"type": "Feature", "geometry": {"type": "Point", "coordinates": [20.55, 46.86667]}, "properties": {"source_label": "szarvas", "sentence_idx": 2419}}, {"type": "Feature", "geometry": {"type": "Point", "coordinates": [18.12263, 47.76356]}, "properties": {"source_label": "komorn", "sentence_idx": 2421}}, {"type": "Feature", "geometry": {"type": "Point", "coordinates": [18.12263, 47.76356]}, "properties": {"source_label": "komorn", "sentence_idx": 2423}}, {"type": "Feature", "geometry": {"type": "Point", "coordinates": [29.66667, 45.33333]}, "properties": {"source_label": "donau", "sentence_idx": 2426}}, {"type": "Feature", "geometry": {"type": "Point", "coordinates": [20.0, 47.0]}, "properties": {"source_label": "ungarn", "sentence_idx": 2431}}, {"type": "Feature", "geometry": {"type": "Point", "coordinates": [18.12263, 47.76356]}, "properties": {"source_label": "komorn", "sentence_idx": 2432}}, {"type": "Feature", "geometry": {"type": "Point", "coordinates": [17.10674, 48.14816]}, "properties": {"source_label": "pre\u00dfburg", "sentence_idx": 2432}}, {"type": "Feature", "geometry": {"type": "Point", "coordinates": [29.66667, 45.33333]}, "properties": {"source_label": "donau", "sentence_idx": 2432}}, {"type": "Feature", "geometry": {"type": "Point", "coordinates": [20.0, 47.0]}, "properties": {"source_label": "ungarn", "sentence_idx": 2435}}, {"type": "Feature", "geometry": {"type": "Point", "coordinates": [19.75083, 46.06972]}, "properties": {"source_label": "palischer see", "sentence_idx": 2439}}, {"type": "Feature", "geometry": {"type": "Point", "coordinates": [17.16503, 47.11937]}, "properties": {"source_label": "janoshaza", "sentence_idx": 2443}}, {"type": "Feature", "geometry": {"type": "Point", "coordinates": [18.23083, 46.0725]}, "properties": {"source_label": "f\u00fcnfkirchen", "sentence_idx": 2445}}, {"type": "Feature", "geometry": {"type": "Point", "coordinates": [20.0, 47.0]}, "properties": {"source_label": "ungarn", "sentence_idx": 2447}}, {"type": "Feature", "geometry": {"type": "Point", "coordinates": [20.0, 47.0]}, "properties": {"source_label": "ungarn", "sentence_idx": 2459}}]}