{"type": "FeatureCollection", "features": [{"type": "Feature", "geometry": {"type": "Point", "coordinates": [18.04436, 48.89452]}, "properties": {"source_label": "trentscher comitat", "sentence_idx": 1453}}, {"type": "Feature", "geometry": {"type": "Point", "coordinates": [14.50453, 48.51103]}, "properties": {"source_label": "freistadt", "sentence_idx": 1461}}, {"type": "Feature", "geometry": {"type": "Point", "coordinates": [20.0, 47.0]}, "properties": {"source_label": "ungarn", "sentence_idx": 1478}}, {"type": "Feature", "geometry": {"type": "Point", "coordinates": [20.0, 47.0]}, "properties": {"source_label": "ungarn", "sentence_idx": 1482}}, {"type": "Feature", "geometry": {"type": "Point", "coordinates": [17.10674, 48.14816]}, "properties": {"source_label": "pre\u00dfburg", "sentence_idx": 1482}}, {"type": "Feature", "geometry": {"type": "Point", "coordinates": [16.37208, 48.20849]}, "properties": {"source_label": "wien", "sentence_idx": 1482}}, {"type": "Feature", "geometry": {"type": "Point", "coordinates": [18.04436, 48.89452]}, "properties": {"source_label": "trentschin", "sentence_idx": 1490}}, {"type": "Feature", "geometry": {"type": "Point", "coordinates": [20.0, 47.0]}, "properties": {"source_label": "ungarn", "sentence_idx": 1497}}, {"type": "Feature", "geometry": {"type": "Point", "coordinates": [20.0, 52.0]}, "properties": {"source_label": "polen", "sentence_idx": 1497}}, {"type": "Feature", "geometry": {"type": "Point", "coordinates": [18.04436, 48.89452]}, "properties": {"source_label": "trentschin", "sentence_idx": 1509}}, {"type": "Feature", "geometry": {"type": "Point", "coordinates": [20.0, 47.0]}, "properties": {"source_label": "ungarn", "sentence_idx": 1512}}, {"type": "Feature", "geometry": {"type": "Point", "coordinates": [16.37208, 48.20849]}, "properties": {"source_label": "wien", "sentence_idx": 1512}}, {"type": "Feature", "geometry": {"type": "Point", "coordinates": [10.5, 51.5]}, "properties": {"source_label": "deutschland", "sentence_idx": 1525}}, {"type": "Feature", "geometry": {"type": "Point", "coordinates": [16.37208, 48.20849]}, "properties": {"source_label": "wien", "sentence_idx": 1528}}, {"type": "Feature", "geometry": {"type": "Point", "coordinates": [18.08453, 48.30763]}, "properties": {"source_label": "nitra", "sentence_idx": 1529}}, {"type": "Feature", "geometry": {"type": "Point", "coordinates": [20.0, 47.0]}, "properties": {"source_label": "ungarn", "sentence_idx": 1531}}, {"type": "Feature", "geometry": {"type": "Point", "coordinates": [18.91003, 48.44858]}, "properties": {"source_label": "schemnitz", "sentence_idx": 1536}}, {"type": "Feature", "geometry": {"type": "Point", "coordinates": [18.91003, 48.44858]}, "properties": {"source_label": "schemnitz", "sentence_idx": 1537}}, {"type": "Feature", "geometry": {"type": "Point", "coordinates": [13.25, 51.0]}, "properties": {"source_label": "sachsen", "sentence_idx": 1539}}, {"type": "Feature", "geometry": {"type": "Point", "coordinates": [18.91003, 48.44858]}, "properties": {"source_label": "schemnitz", "sentence_idx": 1547}}, {"type": "Feature", "geometry": {"type": "Point", "coordinates": [18.91003, 48.44858]}, "properties": {"source_label": "schemnitz", "sentence_idx": 1556}}, {"type": "Feature", "geometry": {"type": "Point", "coordinates": [19.15324, 48.57442]}, "properties": {"source_label": "altsohl", "sentence_idx": 1577}}, {"type": "Feature", "geometry": {"type": "Point", "coordinates": [20.0, 47.0]}, "properties": {"source_label": "ungarn", "sentence_idx": 1580}}, {"type": "Feature", "geometry": {"type": "Point", "coordinates": [19.15349, 48.73946]}, "properties": {"source_label": "neusohl", "sentence_idx": 1585}}, {"type": "Feature", "geometry": {"type": "Point", "coordinates": [19.15349, 48.73946]}, "properties": {"source_label": "neusohl", "sentence_idx": 1595}}, {"type": "Feature", "geometry": {"type": "Point", "coordinates": [29.66667, 45.33333]}, "properties": {"source_label": "donau", "sentence_idx": 1598}}, {"type": "Feature", "geometry": {"type": "Point", "coordinates": [20.0, 47.0]}, "properties": {"source_label": "ungarn", "sentence_idx": 1599}}, {"type": "Feature", "geometry": {"type": "Point", "coordinates": [29.66667, 45.33333]}, "properties": {"source_label": "donau", "sentence_idx": 1600}}, {"type": "Feature", "geometry": {"type": "Point", "coordinates": [29.66667, 45.33333]}, "properties": {"source_label": "donau", "sentence_idx": 1603}}, {"type": "Feature", "geometry": {"type": "Point", "coordinates": [29.66667, 45.33333]}, "properties": {"source_label": "donau", "sentence_idx": 1603}}, {"type": "Feature", "geometry": {"type": "Point", "coordinates": [22.0, 39.0]}, "properties": {"source_label": "griechenland", "sentence_idx": 1603}}, {"type": "Feature", "geometry": {"type": "Point", "coordinates": [16.37208, 48.20849]}, "properties": {"source_label": "wien", "sentence_idx": 1604}}, {"type": "Feature", "geometry": {"type": "Point", "coordinates": [16.37208, 48.20849]}, "properties": {"source_label": "wien", "sentence_idx": 1608}}, {"type": "Feature", "geometry": {"type": "Point", "coordinates": [16.37208, 48.20849]}, "properties": {"source_label": "wien", "sentence_idx": 1614}}, {"type": "Feature", "geometry": {"type": "Point", "coordinates": [17.10674, 48.14816]}, "properties": {"source_label": "pre\u00dfburg", "sentence_idx": 1621}}, {"type": "Feature", "geometry": {"type": "Point", "coordinates": [29.66667, 45.33333]}, "properties": {"source_label": "donau", "sentence_idx": 1621}}, {"type": "Feature", "geometry": {"type": "Point", "coordinates": [29.66667, 45.33333]}, "properties": {"source_label": "donau", "sentence_idx": 1623}}, {"type": "Feature", "geometry": {"type": "Point", "coordinates": [20.0, 47.0]}, "properties": {"source_label": "oberungarn", "sentence_idx": 1627}}, {"type": "Feature", "geometry": {"type": "Point", "coordinates": [17.10674, 48.14816]}, "properties": {"source_label": "pre\u00dfburg", "sentence_idx": 1627}}, {"type": "Feature", "geometry": {"type": "Point", "coordinates": [16.37208, 48.20849]}, "properties": {"source_label": "wien", "sentence_idx": 1630}}, {"type": "Feature", "geometry": {"type": "Point", "coordinates": [21.25808, 48.71395]}, "properties": {"source_label": "kaschau", "sentence_idx": 1636}}, {"type": "Feature", "geometry": {"type": "Point", "coordinates": [16.37208, 48.20849]}, "properties": {"source_label": "wien", "sentence_idx": 1639}}, {"type": "Feature", "geometry": {"type": "Point", "coordinates": [19.33333, 47.41667]}, "properties": {"source_label": "pest", "sentence_idx": 1659}}, {"type": "Feature", "geometry": {"type": "Point", "coordinates": [13.64691, 48.35243]}, "properties": {"source_label": "raab", "sentence_idx": 1660}}, {"type": "Feature", "geometry": {"type": "Point", "coordinates": [16.69732, 47.60435]}, "properties": {"source_label": "zinkendorf", "sentence_idx": 1666}}, {"type": "Feature", "geometry": {"type": "Point", "coordinates": [19.33333, 47.41667]}, "properties": {"source_label": "pest", "sentence_idx": 1667}}, {"type": "Feature", "geometry": {"type": "Point", "coordinates": [29.66667, 45.33333]}, "properties": {"source_label": "donau", "sentence_idx": 1668}}]}