{"type": "FeatureCollection", "features": [{"type": "Feature", "geometry": {"type": "Point", "coordinates": [-5.35257, 36.14474]}, "properties": {"source_label": "gibraltar", "sentence_idx": 430}}, {"type": "Feature", "geometry": {"type": "Point", "coordinates": [-5.35257, 36.14474]}, "properties": {"source_label": "gibraltar", "sentence_idx": 431}}, {"type": "Feature", "geometry": {"type": "Point", "coordinates": [5.38107, 43.29695]}, "properties": {"source_label": "marseille", "sentence_idx": 432}}, {"type": "Feature", "geometry": {"type": "Point", "coordinates": [-0.70312, 52.16045]}, "properties": {"source_label": "england", "sentence_idx": 436}}, {"type": "Feature", "geometry": {"type": "Point", "coordinates": [5.38107, 43.29695]}, "properties": {"source_label": "marseille", "sentence_idx": 439}}, {"type": "Feature", "geometry": {"type": "Point", "coordinates": [10.5, 51.5]}, "properties": {"source_label": "deutschland", "sentence_idx": 440}}, {"type": "Feature", "geometry": {"type": "Point", "coordinates": [2.0, 46.0]}, "properties": {"source_label": "franckreich", "sentence_idx": 440}}, {"type": "Feature", "geometry": {"type": "Point", "coordinates": [5.38107, 43.29695]}, "properties": {"source_label": "marseille", "sentence_idx": 441}}, {"type": "Feature", "geometry": {"type": "Point", "coordinates": [-6.61496, 53.13316]}, "properties": {"source_label": "eustace", "sentence_idx": 446}}, {"type": "Feature", "geometry": {"type": "Point", "coordinates": [12.56553, 55.67594]}, "properties": {"source_label": "kopenhagen", "sentence_idx": 453}}, {"type": "Feature", "geometry": {"type": "Point", "coordinates": [10.0, 56.0]}, "properties": {"source_label": "d\u00e4nemark", "sentence_idx": 455}}, {"type": "Feature", "geometry": {"type": "Point", "coordinates": [-0.70312, 52.16045]}, "properties": {"source_label": "england", "sentence_idx": 455}}]}