{"type": "FeatureCollection", "features": [{"type": "Feature", "geometry": {"type": "Point", "coordinates": [9.14062, 48.69096]}, "properties": {"source_label": "europa", "sentence_idx": 3017}}, {"type": "Feature", "geometry": {"type": "Point", "coordinates": [9.14062, 48.69096]}, "properties": {"source_label": "europa", "sentence_idx": 3019}}, {"type": "Feature", "geometry": {"type": "Point", "coordinates": [5.38107, 43.29695]}, "properties": {"source_label": "marseille", "sentence_idx": 3026}}, {"type": "Feature", "geometry": {"type": "Point", "coordinates": [12.83333, 42.83333]}, "properties": {"source_label": "italien", "sentence_idx": 3027}}, {"type": "Feature", "geometry": {"type": "Point", "coordinates": [5.38107, 43.29695]}, "properties": {"source_label": "marseille", "sentence_idx": 3037}}, {"type": "Feature", "geometry": {"type": "Point", "coordinates": [10.32615, 43.54427]}, "properties": {"source_label": "livorno", "sentence_idx": 3037}}, {"type": "Feature", "geometry": {"type": "Point", "coordinates": [12.33265, 45.43713]}, "properties": {"source_label": "venedig", "sentence_idx": 3037}}, {"type": "Feature", "geometry": {"type": "Point", "coordinates": [10.32615, 43.54427]}, "properties": {"source_label": "livorno", "sentence_idx": 3043}}, {"type": "Feature", "geometry": {"type": "Point", "coordinates": [5.38107, 43.29695]}, "properties": {"source_label": "marseille", "sentence_idx": 3044}}, {"type": "Feature", "geometry": {"type": "Point", "coordinates": [10.32615, 43.54427]}, "properties": {"source_label": "livorno", "sentence_idx": 3044}}, {"type": "Feature", "geometry": {"type": "Point", "coordinates": [5.38107, 43.29695]}, "properties": {"source_label": "marseille", "sentence_idx": 3047}}, {"type": "Feature", "geometry": {"type": "Point", "coordinates": [10.32615, 43.54427]}, "properties": {"source_label": "livorno", "sentence_idx": 3047}}, {"type": "Feature", "geometry": {"type": "Point", "coordinates": [5.38107, 43.29695]}, "properties": {"source_label": "marseille", "sentence_idx": 3054}}, {"type": "Feature", "geometry": {"type": "Point", "coordinates": [10.32615, 43.54427]}, "properties": {"source_label": "livorno", "sentence_idx": 3054}}, {"type": "Feature", "geometry": {"type": "Point", "coordinates": [10.32615, 43.54427]}, "properties": {"source_label": "livorno", "sentence_idx": 3056}}, {"type": "Feature", "geometry": {"type": "Point", "coordinates": [5.38107, 43.29695]}, "properties": {"source_label": "marseille", "sentence_idx": 3067}}, {"type": "Feature", "geometry": {"type": "Point", "coordinates": [10.32615, 43.54427]}, "properties": {"source_label": "livorno", "sentence_idx": 3067}}, {"type": "Feature", "geometry": {"type": "Point", "coordinates": [9.14062, 48.69096]}, "properties": {"source_label": "europa", "sentence_idx": 3072}}, {"type": "Feature", "geometry": {"type": "Point", "coordinates": [9.14062, 48.69096]}, "properties": {"source_label": "europa", "sentence_idx": 3074}}, {"type": "Feature", "geometry": {"type": "Point", "coordinates": [12.33265, 45.43713]}, "properties": {"source_label": "venedig", "sentence_idx": 3075}}, {"type": "Feature", "geometry": {"type": "Point", "coordinates": [10.32615, 43.54427]}, "properties": {"source_label": "livorno", "sentence_idx": 3075}}, {"type": "Feature", "geometry": {"type": "Point", "coordinates": [5.38107, 43.29695]}, "properties": {"source_label": "marseille", "sentence_idx": 3075}}, {"type": "Feature", "geometry": {"type": "Point", "coordinates": [5.38107, 43.29695]}, "properties": {"source_label": "marseille", "sentence_idx": 3077}}, {"type": "Feature", "geometry": {"type": "Point", "coordinates": [12.33265, 45.43713]}, "properties": {"source_label": "venedig", "sentence_idx": 3078}}, {"type": "Feature", "geometry": {"type": "Point", "coordinates": [10.32615, 43.54427]}, "properties": {"source_label": "livorno", "sentence_idx": 3078}}, {"type": "Feature", "geometry": {"type": "Point", "coordinates": [9.14062, 48.69096]}, "properties": {"source_label": "europa", "sentence_idx": 3079}}, {"type": "Feature", "geometry": {"type": "Point", "coordinates": [3.16667, 43.66667]}, "properties": {"source_label": "languedoc", "sentence_idx": 3082}}, {"type": "Feature", "geometry": {"type": "Point", "coordinates": [2.0, 46.0]}, "properties": {"source_label": "frankreich", "sentence_idx": 3085}}, {"type": "Feature", "geometry": {"type": "Point", "coordinates": [5.38107, 43.29695]}, "properties": {"source_label": "marseille", "sentence_idx": 3085}}, {"type": "Feature", "geometry": {"type": "Point", "coordinates": [10.32615, 43.54427]}, "properties": {"source_label": "livorno", "sentence_idx": 3085}}, {"type": "Feature", "geometry": {"type": "Point", "coordinates": [9.14062, 48.69096]}, "properties": {"source_label": "europa", "sentence_idx": 3087}}, {"type": "Feature", "geometry": {"type": "Point", "coordinates": [9.14062, 48.69096]}, "properties": {"source_label": "europa", "sentence_idx": 3090}}, {"type": "Feature", "geometry": {"type": "Point", "coordinates": [9.14062, 48.69096]}, "properties": {"source_label": "europa", "sentence_idx": 3092}}, {"type": "Feature", "geometry": {"type": "Point", "coordinates": [12.33265, 45.43713]}, "properties": {"source_label": "venedig", "sentence_idx": 3094}}, {"type": "Feature", "geometry": {"type": "Point", "coordinates": [5.38107, 43.29695]}, "properties": {"source_label": "marseille", "sentence_idx": 3094}}, {"type": "Feature", "geometry": {"type": "Point", "coordinates": [2.0, 46.0]}, "properties": {"source_label": "frankreich", "sentence_idx": 3101}}]}