{"type": "FeatureCollection", "features": [{"type": "Feature", "geometry": {"type": "Point", "coordinates": [8.75603, 49.75315]}, "properties": {"source_label": "webern", "sentence_idx": 802}}, {"type": "Feature", "geometry": {"type": "Point", "coordinates": [5.75, 52.25]}, "properties": {"source_label": "holland", "sentence_idx": 809}}, {"type": "Feature", "geometry": {"type": "Point", "coordinates": [12.33265, 45.43713]}, "properties": {"source_label": "venedig", "sentence_idx": 809}}, {"type": "Feature", "geometry": {"type": "Point", "coordinates": [14.72443, 36.92574]}, "properties": {"source_label": "ragusa", "sentence_idx": 812}}, {"type": "Feature", "geometry": {"type": "Point", "coordinates": [3.08746, 36.73225]}, "properties": {"source_label": "algier", "sentence_idx": 812}}, {"type": "Feature", "geometry": {"type": "Point", "coordinates": [10.16579, 36.81897]}, "properties": {"source_label": "tunis", "sentence_idx": 812}}, {"type": "Feature", "geometry": {"type": "Point", "coordinates": [13.18733, 32.88743]}, "properties": {"source_label": "tripolis", "sentence_idx": 812}}]}