{"type": "FeatureCollection", "features": [{"type": "Feature", "geometry": {"type": "Point", "coordinates": [28.71946, 5.00715]}, "properties": {"source_label": "wadi rema", "sentence_idx": 8225}}, {"type": "Feature", "geometry": {"type": "Point", "coordinates": [43.58333, 14.56667]}, "properties": {"source_label": "hadie", "sentence_idx": 8231}}, {"type": "Feature", "geometry": {"type": "Point", "coordinates": [43.31518, 14.1951]}, "properties": {"source_label": "zebid", "sentence_idx": 8246}}, {"type": "Feature", "geometry": {"type": "Point", "coordinates": [30.0, 27.0]}, "properties": {"source_label": "egypten", "sentence_idx": 8247}}, {"type": "Feature", "geometry": {"type": "Point", "coordinates": [45.0, 25.0]}, "properties": {"source_label": "arabien", "sentence_idx": 8255}}, {"type": "Feature", "geometry": {"type": "Point", "coordinates": [42.39623, 12.46463]}, "properties": {"source_label": "musa", "sentence_idx": 8269}}, {"type": "Feature", "geometry": {"type": "Point", "coordinates": [45.0, 25.0]}, "properties": {"source_label": "arabien", "sentence_idx": 8273}}, {"type": "Feature", "geometry": {"type": "Point", "coordinates": [42.39623, 12.46463]}, "properties": {"source_label": "musa", "sentence_idx": 8286}}, {"type": "Feature", "geometry": {"type": "Point", "coordinates": [39.18624, 21.49012]}, "properties": {"source_label": "dschidda", "sentence_idx": 8294}}, {"type": "Feature", "geometry": {"type": "Point", "coordinates": [39.18624, 21.49012]}, "properties": {"source_label": "dschidda", "sentence_idx": 8316}}, {"type": "Feature", "geometry": {"type": "Point", "coordinates": [47.7804, 30.50852]}, "properties": {"source_label": "basra", "sentence_idx": 8319}}, {"type": "Feature", "geometry": {"type": "Point", "coordinates": [44.40088, 33.34058]}, "properties": {"source_label": "bagdad", "sentence_idx": 8319}}, {"type": "Feature", "geometry": {"type": "Point", "coordinates": [44.40088, 33.34058]}, "properties": {"source_label": "bagdad", "sentence_idx": 8320}}, {"type": "Feature", "geometry": {"type": "Point", "coordinates": [44.40088, 33.34058]}, "properties": {"source_label": "bagdad", "sentence_idx": 8334}}, {"type": "Feature", "geometry": {"type": "Point", "coordinates": [45.0, 25.0]}, "properties": {"source_label": "arabien", "sentence_idx": 8353}}, {"type": "Feature", "geometry": {"type": "Point", "coordinates": [39.18624, 21.49012]}, "properties": {"source_label": "dschidda", "sentence_idx": 8370}}, {"type": "Feature", "geometry": {"type": "Point", "coordinates": [45.0, 25.0]}, "properties": {"source_label": "arabien", "sentence_idx": 8377}}, {"type": "Feature", "geometry": {"type": "Point", "coordinates": [39.18624, 21.49012]}, "properties": {"source_label": "dschidda", "sentence_idx": 8391}}, {"type": "Feature", "geometry": {"type": "Point", "coordinates": [39.18624, 21.49012]}, "properties": {"source_label": "dschidda", "sentence_idx": 8392}}, {"type": "Feature", "geometry": {"type": "Point", "coordinates": [39.18624, 21.49012]}, "properties": {"source_label": "dschidda", "sentence_idx": 8394}}, {"type": "Feature", "geometry": {"type": "Point", "coordinates": [39.18624, 21.49012]}, "properties": {"source_label": "dschidda", "sentence_idx": 8401}}, {"type": "Feature", "geometry": {"type": "Point", "coordinates": [39.18624, 21.49012]}, "properties": {"source_label": "dschidda", "sentence_idx": 8404}}, {"type": "Feature", "geometry": {"type": "Point", "coordinates": [42.95452, 14.79781]}, "properties": {"source_label": "hodeida", "sentence_idx": 8410}}, {"type": "Feature", "geometry": {"type": "Point", "coordinates": [45.0, 25.0]}, "properties": {"source_label": "arabien", "sentence_idx": 8419}}, {"type": "Feature", "geometry": {"type": "Point", "coordinates": [45.0, 25.0]}, "properties": {"source_label": "arabien", "sentence_idx": 8419}}, {"type": "Feature", "geometry": {"type": "Point", "coordinates": [39.18624, 21.49012]}, "properties": {"source_label": "dschidda", "sentence_idx": 8420}}]}