{"type": "FeatureCollection", "features": [{"type": "Feature", "geometry": {"type": "Point", "coordinates": [31.24967, 30.06263]}, "properties": {"source_label": "kahira", "sentence_idx": 2867}}, {"type": "Feature", "geometry": {"type": "Point", "coordinates": [30.0, 27.0]}, "properties": {"source_label": "egypten", "sentence_idx": 2875}}, {"type": "Feature", "geometry": {"type": "Point", "coordinates": [30.0, 27.0]}, "properties": {"source_label": "egypten", "sentence_idx": 2878}}, {"type": "Feature", "geometry": {"type": "Point", "coordinates": [29.91582, 31.20176]}, "properties": {"source_label": "alexandrien", "sentence_idx": 2879}}, {"type": "Feature", "geometry": {"type": "Point", "coordinates": [28.94966, 41.01384]}, "properties": {"source_label": "constantinopel", "sentence_idx": 2879}}, {"type": "Feature", "geometry": {"type": "Point", "coordinates": [29.91582, 31.20176]}, "properties": {"source_label": "alexandrien", "sentence_idx": 2882}}, {"type": "Feature", "geometry": {"type": "Point", "coordinates": [30.0, 27.0]}, "properties": {"source_label": "egypten", "sentence_idx": 2886}}, {"type": "Feature", "geometry": {"type": "Point", "coordinates": [29.91582, 31.20176]}, "properties": {"source_label": "alexandrien", "sentence_idx": 2893}}, {"type": "Feature", "geometry": {"type": "Point", "coordinates": [39.18624, 21.49012]}, "properties": {"source_label": "dschidda", "sentence_idx": 2894}}, {"type": "Feature", "geometry": {"type": "Point", "coordinates": [30.0, 27.0]}, "properties": {"source_label": "egypten", "sentence_idx": 2894}}, {"type": "Feature", "geometry": {"type": "Point", "coordinates": [30.0, 27.0]}, "properties": {"source_label": "egypten", "sentence_idx": 2895}}, {"type": "Feature", "geometry": {"type": "Point", "coordinates": [28.94966, 41.01384]}, "properties": {"source_label": "constantinopel", "sentence_idx": 2896}}, {"type": "Feature", "geometry": {"type": "Point", "coordinates": [30.0, 27.0]}, "properties": {"source_label": "egypten", "sentence_idx": 2898}}, {"type": "Feature", "geometry": {"type": "Point", "coordinates": [28.94966, 41.01384]}, "properties": {"source_label": "constantinopel", "sentence_idx": 2899}}, {"type": "Feature", "geometry": {"type": "Point", "coordinates": [30.0, 27.0]}, "properties": {"source_label": "egypten", "sentence_idx": 2900}}, {"type": "Feature", "geometry": {"type": "Point", "coordinates": [30.0, 27.0]}, "properties": {"source_label": "egypten", "sentence_idx": 2901}}, {"type": "Feature", "geometry": {"type": "Point", "coordinates": [43.4999, 41.99998]}, "properties": {"source_label": "georgien", "sentence_idx": 2903}}, {"type": "Feature", "geometry": {"type": "Point", "coordinates": [41.945, 42.53417]}, "properties": {"source_label": "mingrelien", "sentence_idx": 2903}}, {"type": "Feature", "geometry": {"type": "Point", "coordinates": [28.94966, 41.01384]}, "properties": {"source_label": "constantinopel", "sentence_idx": 2903}}, {"type": "Feature", "geometry": {"type": "Point", "coordinates": [30.0, 27.0]}, "properties": {"source_label": "egypten", "sentence_idx": 2911}}, {"type": "Feature", "geometry": {"type": "Point", "coordinates": [30.0, 27.0]}, "properties": {"source_label": "egypten", "sentence_idx": 2914}}, {"type": "Feature", "geometry": {"type": "Point", "coordinates": [30.0, 27.0]}, "properties": {"source_label": "egypten", "sentence_idx": 2915}}, {"type": "Feature", "geometry": {"type": "Point", "coordinates": [30.0, 27.0]}, "properties": {"source_label": "egypten", "sentence_idx": 2916}}, {"type": "Feature", "geometry": {"type": "Point", "coordinates": [30.0, 27.0]}, "properties": {"source_label": "egypten", "sentence_idx": 2925}}, {"type": "Feature", "geometry": {"type": "Point", "coordinates": [28.94966, 41.01384]}, "properties": {"source_label": "constantinopel", "sentence_idx": 2937}}, {"type": "Feature", "geometry": {"type": "Point", "coordinates": [30.0, 27.0]}, "properties": {"source_label": "egypten", "sentence_idx": 2938}}, {"type": "Feature", "geometry": {"type": "Point", "coordinates": [30.0, 27.0]}, "properties": {"source_label": "egypten", "sentence_idx": 2952}}, {"type": "Feature", "geometry": {"type": "Point", "coordinates": [30.0, 27.0]}, "properties": {"source_label": "egypten", "sentence_idx": 2956}}, {"type": "Feature", "geometry": {"type": "Point", "coordinates": [30.0, 27.0]}, "properties": {"source_label": "egypten", "sentence_idx": 2969}}]}