{"type": "FeatureCollection", "features": [{"type": "Feature", "geometry": {"type": "Point", "coordinates": [28.94966, 41.01384]}, "properties": {"source_label": "constantinopel", "sentence_idx": 773}}, {"type": "Feature", "geometry": {"type": "Point", "coordinates": [28.94966, 41.01384]}, "properties": {"source_label": "constantinopel", "sentence_idx": 775}}, {"type": "Feature", "geometry": {"type": "Point", "coordinates": [28.94966, 41.01384]}, "properties": {"source_label": "constantinopel", "sentence_idx": 777}}, {"type": "Feature", "geometry": {"type": "Point", "coordinates": [28.94966, 41.01384]}, "properties": {"source_label": "constantinopel", "sentence_idx": 780}}, {"type": "Feature", "geometry": {"type": "Point", "coordinates": [28.94966, 41.01384]}, "properties": {"source_label": "constantinopel", "sentence_idx": 787}}, {"type": "Feature", "geometry": {"type": "Point", "coordinates": [28.94966, 41.01384]}, "properties": {"source_label": "constantinopel", "sentence_idx": 788}}, {"type": "Feature", "geometry": {"type": "Point", "coordinates": [28.94966, 41.01384]}, "properties": {"source_label": "constantinopel", "sentence_idx": 789}}, {"type": "Feature", "geometry": {"type": "Point", "coordinates": [29.06097, 41.10164]}, "properties": {"source_label": "canal bosphorus", "sentence_idx": 791}}, {"type": "Feature", "geometry": {"type": "Point", "coordinates": [28.97451, 41.02602]}, "properties": {"source_label": "galata", "sentence_idx": 791}}, {"type": "Feature", "geometry": {"type": "Point", "coordinates": [28.94966, 41.01384]}, "properties": {"source_label": "constantinopel", "sentence_idx": 797}}, {"type": "Feature", "geometry": {"type": "Point", "coordinates": [28.94966, 41.01384]}, "properties": {"source_label": "constantinopel", "sentence_idx": 800}}, {"type": "Feature", "geometry": {"type": "Point", "coordinates": [28.94966, 41.01384]}, "properties": {"source_label": "constantinopel", "sentence_idx": 802}}, {"type": "Feature", "geometry": {"type": "Point", "coordinates": [28.97451, 41.02602]}, "properties": {"source_label": "galata", "sentence_idx": 806}}, {"type": "Feature", "geometry": {"type": "Point", "coordinates": [28.94966, 41.01384]}, "properties": {"source_label": "constantinopel", "sentence_idx": 807}}, {"type": "Feature", "geometry": {"type": "Point", "coordinates": [28.94966, 41.01384]}, "properties": {"source_label": "constantinopel", "sentence_idx": 808}}, {"type": "Feature", "geometry": {"type": "Point", "coordinates": [28.97451, 41.02602]}, "properties": {"source_label": "galata", "sentence_idx": 809}}, {"type": "Feature", "geometry": {"type": "Point", "coordinates": [28.94966, 41.01384]}, "properties": {"source_label": "constantinopel", "sentence_idx": 812}}, {"type": "Feature", "geometry": {"type": "Point", "coordinates": [28.94966, 41.01384]}, "properties": {"source_label": "constantinopel", "sentence_idx": 812}}, {"type": "Feature", "geometry": {"type": "Point", "coordinates": [36.0, 34.0]}, "properties": {"source_label": "levante", "sentence_idx": 813}}, {"type": "Feature", "geometry": {"type": "Point", "coordinates": [28.94966, 41.01384]}, "properties": {"source_label": "constantinopel", "sentence_idx": 817}}, {"type": "Feature", "geometry": {"type": "Point", "coordinates": [27.0, 46.5]}, "properties": {"source_label": "moldau", "sentence_idx": 818}}, {"type": "Feature", "geometry": {"type": "Point", "coordinates": [29.08268, 40.97882]}, "properties": {"source_label": "chalcedonien", "sentence_idx": 825}}, {"type": "Feature", "geometry": {"type": "Point", "coordinates": [29.01366, 41.02274]}, "properties": {"source_label": "scudar", "sentence_idx": 826}}, {"type": "Feature", "geometry": {"type": "Point", "coordinates": [28.94966, 41.01384]}, "properties": {"source_label": "constantinopel", "sentence_idx": 831}}, {"type": "Feature", "geometry": {"type": "Point", "coordinates": [28.97451, 41.02602]}, "properties": {"source_label": "galata", "sentence_idx": 832}}, {"type": "Feature", "geometry": {"type": "Point", "coordinates": [28.97451, 41.02602]}, "properties": {"source_label": "galata", "sentence_idx": 834}}, {"type": "Feature", "geometry": {"type": "Point", "coordinates": [28.94966, 41.01384]}, "properties": {"source_label": "constantinopel", "sentence_idx": 836}}, {"type": "Feature", "geometry": {"type": "Point", "coordinates": [28.94966, 41.01384]}, "properties": {"source_label": "constantinopel", "sentence_idx": 838}}, {"type": "Feature", "geometry": {"type": "Point", "coordinates": [28.94966, 41.01384]}, "properties": {"source_label": "constantinopel", "sentence_idx": 839}}, {"type": "Feature", "geometry": {"type": "Point", "coordinates": [28.94966, 41.01384]}, "properties": {"source_label": "constantinopel", "sentence_idx": 841}}, {"type": "Feature", "geometry": {"type": "Point", "coordinates": [30.0, 27.0]}, "properties": {"source_label": "egypten", "sentence_idx": 841}}, {"type": "Feature", "geometry": {"type": "Point", "coordinates": [29.91582, 31.20176]}, "properties": {"source_label": "alexandrien", "sentence_idx": 842}}, {"type": "Feature", "geometry": {"type": "Point", "coordinates": [28.94966, 41.01384]}, "properties": {"source_label": "constantinope", "sentence_idx": 845}}, {"type": "Feature", "geometry": {"type": "Point", "coordinates": [28.94966, 41.01384]}, "properties": {"source_label": "constantinopel", "sentence_idx": 846}}, {"type": "Feature", "geometry": {"type": "Point", "coordinates": [30.0, 27.0]}, "properties": {"source_label": "egypten", "sentence_idx": 846}}, {"type": "Feature", "geometry": {"type": "Point", "coordinates": [19.22436, 41.92936]}, "properties": {"source_label": "dulcigno", "sentence_idx": 846}}, {"type": "Feature", "geometry": {"type": "Point", "coordinates": [14.72443, 36.92574]}, "properties": {"source_label": "ragusa", "sentence_idx": 846}}, {"type": "Feature", "geometry": {"type": "Point", "coordinates": [29.91582, 31.20176]}, "properties": {"source_label": "alexandrien", "sentence_idx": 850}}, {"type": "Feature", "geometry": {"type": "Point", "coordinates": [28.94966, 41.01384]}, "properties": {"source_label": "constantinopel", "sentence_idx": 852}}, {"type": "Feature", "geometry": {"type": "Point", "coordinates": [28.94966, 41.01384]}, "properties": {"source_label": "constantinopel", "sentence_idx": 852}}, {"type": "Feature", "geometry": {"type": "Point", "coordinates": [28.94966, 41.01384]}, "properties": {"source_label": "constantinopel", "sentence_idx": 862}}, {"type": "Feature", "geometry": {"type": "Point", "coordinates": [26.4584, 40.21407]}, "properties": {"source_label": "dardanellen", "sentence_idx": 863}}, {"type": "Feature", "geometry": {"type": "Point", "coordinates": [28.94966, 41.01384]}, "properties": {"source_label": "constantinopel", "sentence_idx": 863}}, {"type": "Feature", "geometry": {"type": "Point", "coordinates": [28.94966, 41.01384]}, "properties": {"source_label": "constantinopel", "sentence_idx": 866}}, {"type": "Feature", "geometry": {"type": "Point", "coordinates": [26.03306, 39.82194]}, "properties": {"source_label": "tenedos", "sentence_idx": 874}}, {"type": "Feature", "geometry": {"type": "Point", "coordinates": [28.94966, 41.01384]}, "properties": {"source_label": "constantinopel", "sentence_idx": 874}}, {"type": "Feature", "geometry": {"type": "Point", "coordinates": [28.94966, 41.01384]}, "properties": {"source_label": "constantinopel", "sentence_idx": 874}}, {"type": "Feature", "geometry": {"type": "Point", "coordinates": [26.03306, 39.82194]}, "properties": {"source_label": "tenedos", "sentence_idx": 874}}, {"type": "Feature", "geometry": {"type": "Point", "coordinates": [27.14665, 36.84452]}, "properties": {"source_label": "stanchio", "sentence_idx": 879}}, {"type": "Feature", "geometry": {"type": "Point", "coordinates": [27.96081, 36.19613]}, "properties": {"source_label": "rhodus", "sentence_idx": 880}}, {"type": "Feature", "geometry": {"type": "Point", "coordinates": [27.96081, 36.19613]}, "properties": {"source_label": "rhodus", "sentence_idx": 881}}, {"type": "Feature", "geometry": {"type": "Point", "coordinates": [27.96081, 36.19613]}, "properties": {"source_label": "rhodus", "sentence_idx": 884}}, {"type": "Feature", "geometry": {"type": "Point", "coordinates": [29.91582, 31.20176]}, "properties": {"source_label": "alexandrien", "sentence_idx": 884}}]}